[
  {
    "years": 2,
    "place": "New York City",
    "lat": 40.71455,
    "lon": -74.007124
  },
  {
    "years": 6,
    "place": "San Francisco",
    "lat": 37.7771187,
    "lon": -122.4196396
  },
  {
    "years": 8,
    "place": "Santa Cruz",
    "lat": 36.9740181,
    "lon": -122.0309525
  },
  {
    "years": 3,
    "place": "Santa Barbara",
    "lat": 34.4193802,
    "lon": -119.6990509
  },
  {
    "years": 10,
    "place": "Tucson",
    "lat": 32.22155,
    "lon": -110.9697571
  },
  {
    "years": 1,
    "place": "Washington DC",
    "lat": 38.8903694,
    "lon": -77.0319595
  }
]